1507881378.09593987,$GPROM CORE 6.02 (36023) Oct 15 2009 16:52:08*56

1507881378.0959959,$GPRV=AC SD PDoS SR*20

1507881378.09705663,$GPRMC,075621.00,A,3110.32858,N,12124.51804,E,13.020,166.53,131017,,,A*50

1507881379.09785581,$GPRMC,075622.00,A,3110.32524,N,12124.51907,E,11.788,166.97,131017,,,A*58

1507881380.09586811,$GPRMC,075623.00,A,3110.32227,N,12124.51996,E,10.442,166.37,131017,,,A*5B

1507881381.0920155,$GPRMC,075624.00,A,3110.32001,N,12124.52120,E,8.792,158.82,131017,,,A*68

1507881382.09127378,$GPRMC,075625.00,A,3110.31852,N,12124.52189,E,5.605,159.86,131017,,,A*60

1507881383.08917212,$GPRMC,075626.00,A,3110.31711,N,12124.52239,E,5.610,160.50,131017,,,A*66

1507881384.09232593,$GPRMC,075627.00,A,3110.31600,N,12124.52247,E,2.915,161.28,131017,,,A*6C

1507881385.09341192,$GPRMC,075628.00,A,3110.31522,N,12124.52259,E,2.528,,131017,,,A*7F

1507881386.09226799,$GPRMC,075629.00,A,3110.31462,N,12124.52248,E,2.464,,131017,,,A*72

1507881387.09055901,$GPRMC,075630.00,A,3110.31389,N,12124.52260,E,2.014,,131017,,,A*71

1507881388.09170771,$GPRMC,075631.00,A,3110.31360,N,12124.52219,E,1.443,,131017,,,A*7C

1507881389.09122634,$GPRMC,075632.00,A,3110.31336,N,12124.52268,E,0.537,,131017,,,A*79

1507881390.09672189,$GPRMC,075633.00,A,3110.31337,N,12124.52314,E,0.136,,131017,,,A*76

1507881391.09929872,$GPRMC,075634.00,A,3110.31340,N,12124.52306,E,0.007,,131017,,,A*71

1507881392.09505177,$GPRMC,075635.00,A,3110.31343,N,12124.52305,E,0.041,,131017,,,A*72

1507881393.09418845,$GPRMC,075636.00,A,3110.31347,N,12124.52302,E,0.005,,131017,,,A*72

1507881394.09518814,$GPRMC,075637.00,A,3110.31356,N,12124.52304,E,0.027,,131017,,,A*75

1507881395.09685326,$GPRMC,075638.00,A,3110.31362,N,12124.52305,E,0.022,,131017,,,A*79

1507881396.09744906,$GPRMC,075639.00,A,3110.31367,N,12124.52313,E,0.086,,131017,,,A*74

1507881397.10092473,$GPRMC,075640.00,A,3110.31370,N,12124.52322,E,0.376,156.70,131017,,,A*69

1507881398.09707904,$GPRMC,075641.00,A,3110.31369,N,12124.52331,E,0.065,,131017,,,A*78

1507881399.09709668,$GPRMC,075642.00,A,3110.31369,N,12124.52330,E,0.155,,131017,,,A*78

1507881400.09649301,$GPRMC,075643.00,A,3110.31368,N,12124.52328,E,0.099,,131017,,,A*70

1507881401.09613395,$GPRMC,075644.00,A,3110.31368,N,12124.52327,E,0.026,,131017,,,A*7C

1507881402.09412217,$GPRMC,075645.00,A,3110.31366,N,12124.52331,E,0.014,,131017,,,A*75

1507881403.09732389,$GPRMC,075646.00,A,3110.31360,N,12124.52337,E,0.029,,131017,,,A*78

1507881404.09894276,$GPRMC,075647.00,A,3110.31357,N,12124.52330,E,0.008,,131017,,,A*79

1507881405.09725928,$GPRMC,075648.00,A,3110.31358,N,12124.52323,E,0.017,,131017,,,A*75

1507881406.09794831,$GPRMC,075649.00,A,3110.31357,N,12124.52314,E,0.013,,131017,,,A*7B

1507881407.09669828,$GPRMC,075650.00,A,3110.31352,N,12124.52319,E,0.014,,131017,,,A*7C

1507881408.09635353,$GPRMC,075651.00,A,3110.31351,N,12124.52317,E,0.040,,131017,,,A*71

1507881409.09521103,$GPRMC,075652.00,A,3110.31351,N,12124.52311,E,0.019,,131017,,,A*78

1507881410.09643197,$GPRMC,075653.00,A,3110.31351,N,12124.52308,E,0.011,,131017,,,A*79

1507881411.09631872,$GPRMC,075654.00,A,3110.31352,N,12124.52301,E,0.018,,131017,,,A*7D

1507881412.09708428,$GPRMC,075655.00,A,3110.31351,N,12124.52292,E,0.052,,131017,,,A*7A

1507881413.0963428,$GPRMC,075656.00,A,3110.31349,N,12124.52286,E,0.056,,131017,,,A*71

1507881414.0993793,$GPRMC,075657.00,A,3110.31344,N,12124.52278,E,0.014,,131017,,,A*7A

1507881415.09679222,$GPRMC,075658.00,A,3110.31341,N,12124.52263,E,0.016,,131017,,,A*78

1507881416.09695292,$GPRMC,075659.00,A,3110.31341,N,12124.52250,E,0.035,,131017,,,A*78

1507881417.09703135,$GPRMC,075700.00,A,3110.31342,N,12124.52237,E,0.023,,131017,,,A*70

1507881418.09727621,$GPRMC,075701.00,A,3110.31344,N,12124.52224,E,0.001,,131017,,,A*75

1507881419.09631371,$GPRMC,075702.00,A,3110.31345,N,12124.52212,E,0.015,,131017,,,A*77

1507881420.09924483,$GPRMC,075703.00,A,3110.31342,N,12124.52208,E,0.075,,131017,,,A*7C

1507881421.10191202,$GPRMC,075704.00,A,3110.31331,N,12124.52233,E,0.080,,131017,,,A*7D

1507881422.10032749,$GPRMC,075705.00,A,3110.31289,N,12124.52359,E,0.016,,131017,,,A*7C

1507881423.09789348,$GPRMC,075706.00,A,3110.31272,N,12124.52396,E,0.012,,131017,,,A*7C

1507881424.10215068,$GPRMC,075707.00,A,3110.31253,N,12124.52431,E,0.035,,131017,,,A*71

1507881425.09899688,$GPRMC,075708.00,A,3110.31235,N,12124.52443,E,0.056,,131017,,,A*7E

1507881426.09859276,$GPRMC,075709.00,A,3110.31221,N,12124.52450,E,0.113,,131017,,,A*78

1507881427.10360694,$GPRMC,075710.00,A,3110.31215,N,12124.52451,E,0.066,,131017,,,A*75

1507881428.10221219,$GPRMC,075711.00,A,3110.31207,N,12124.52448,E,0.037,,131017,,,A*7B

1507881429.10205221,$GPRMC,075712.00,A,3110.31201,N,12124.52447,E,0.049,,131017,,,A*78

1507881430.10195613,$GPRMC,075713.00,A,3110.31194,N,12124.52447,E,0.019,,131017,,,A*73

1507881431.09870553,$GPRMC,075714.00,A,3110.31188,N,12124.52446,E,0.033,,131017,,,A*70

1507881432.09798074,$GPRMC,075715.00,A,3110.31178,N,12124.52457,E,0.045,,131017,,,A*7F

1507881433.0989213,$GPRMC,075716.00,A,3110.31170,N,12124.52462,E,0.019,,131017,,,A*7B

1507881434.09586239,$GPRMC,075717.00,A,3110.31164,N,12124.52462,E,0.020,,131017,,,A*75

1507881435.09711361,$GPRMC,075718.00,A,3110.31156,N,12124.52462,E,0.026,,131017,,,A*7D

1507881436.09787679,$GPRMC,075719.00,A,3110.31149,N,12124.52464,E,0.023,,131017,,,A*71

1507881437.09629107,$GPRMC,075720.00,A,3110.31141,N,12124.52462,E,0.036,,131017,,,A*71

1507881438.09886789,$GPRMC,075721.00,A,3110.31132,N,12124.52461,E,0.068,,131017,,,A*7C

1507881439.10338926,$GPRMC,075722.00,A,3110.31126,N,12124.52460,E,0.098,,131017,,,A*74

1507881440.10318637,$GPRMC,075723.00,A,3110.31123,N,12124.52458,E,0.050,,131017,,,A*7F

1507881441.10119224,$GPRMC,075724.00,A,3110.31122,N,12124.52454,E,0.067,,131017,,,A*71

1507881442.10104728,$GPRMC,075725.00,A,3110.31126,N,12124.52442,E,0.076,,131017,,,A*73

1507881443.10103059,$GPRMC,075726.00,A,3110.31128,N,12124.52432,E,0.142,,131017,,,A*7F

1507881444.10205007,$GPRMC,075727.00,A,3110.31132,N,12124.52419,E,0.071,,131017,,,A*7D

1507881445.10476565,$GPRMC,075728.00,A,3110.31136,N,12124.52403,E,0.020,,131017,,,A*79

1507881446.09998202,$GPRMC,075729.00,A,3110.31152,N,12124.52372,E,0.226,,131017,,,A*7F

1507881447.09915972,$GPRMC,075730.00,A,3110.31163,N,12124.52343,E,0.416,177.20,131017,,,A*6F

1507881448.10076761,$GPRMC,075731.00,A,3110.31172,N,12124.52319,E,0.383,191.24,131017,,,A*66

1507881449.09798741,$GPRMC,075732.00,A,3110.31182,N,12124.52294,E,0.267,,131017,,,A*74

1507881450.10265875,$GPRMC,075733.00,A,3110.31192,N,12124.52270,E,0.279,,131017,,,A*71

1507881451.10398889,$GPRMC,075734.00,A,3110.31196,N,12124.52252,E,0.354,201.98,131017,,,A*60

1507881452.10108113,$GPRMC,075735.00,A,3110.31202,N,12124.52233,E,0.376,212.76,131017,,,A*6A

1507881453.10018921,$GPRMC,075736.00,A,3110.31208,N,12124.52212,E,0.284,,131017,,,A*72

1507881454.10202551,$GPRMC,075737.00,A,3110.31218,N,12124.52187,E,0.229,,131017,,,A*7A

1507881455.09826398,$GPRMC,075738.00,A,3110.31221,N,12124.52174,E,0.145,,131017,,,A*7A

1507881456.10187054,$GPRMC,075739.00,A,3110.31224,N,12124.52162,E,0.179,,131017,,,A*76

1507881457.09881544,$GPRMC,075740.00,A,3110.31224,N,12124.52156,E,0.201,,131017,,,A*73

1507881458.10207486,$GPRMC,075741.00,A,3110.31202,N,12124.52180,E,0.055,,131017,,,A*7E

1507881459.10364771,$GPRMC,075742.00,A,3110.31046,N,12124.52406,E,0.938,,131017,,,A*76

1507881460.1052053,$GPRMC,075743.00,A,3110.31091,N,12124.52367,E,1.127,,131017,,,A*7A

1507881461.10338712,$GPRMC,075744.00,A,3110.31025,N,12124.52444,E,2.095,,131017,,,A*7F

1507881462.10448861,$GPRMC,075745.00,A,3110.31007,N,12124.52429,E,2.526,,131017,,,A*78

1507881463.1039958,$GPRMC,075746.00,A,3110.30943,N,12124.52432,E,3.609,208.40,131017,,,A*66

1507881464.10671115,$GPRMC,075747.00,A,3110.30822,N,12124.52492,E,5.114,194.64,131017,,,A*66

1507881465.10405397,$GPRMC,075748.00,A,3110.30670,N,12124.52545,E,7.240,183.63,131017,,,A*6A

1507881466.10317016,$GPRMC,075749.00,A,3110.30464,N,12124.52540,E,9.265,179.98,131017,,,A*61

1507881467.10690236,$GPRMC,075750.00,A,3110.30253,N,12124.52596,E,7.648,174.73,131017,,,A*6D

1507881468.10472584,$GPRMC,075751.00,A,3110.30035,N,12124.52617,E,8.479,174.70,131017,,,A*68

1507881469.10469794,$GPRMC,075752.00,A,3110.29831,N,12124.52594,E,6.883,175.63,131017,,,A*63

1507881470.10593843,$GPRMC,075753.00,A,3110.29633,N,12124.52580,E,6.120,176.66,131017,,,A*6D

1507881471.10468483,$GPRMC,075754.00,A,3110.29474,N,12124.52515,E,5.899,178.27,131017,,,A*64

1507881472.10574722,$GPRMC,075755.00,A,3110.29319,N,12124.52437,E,6.056,182.48,131017,,,A*6C

1507881473.10477567,$GPRMC,075756.00,A,3110.29175,N,12124.52377,E,6.471,191.06,131017,,,A*6D

1507881474.11132145,$GPRMC,075757.00,A,3110.29063,N,12124.52238,E,6.901,205.42,131017,,,A*64

1507881475.10789847,$GPRMC,075758.00,A,3110.28937,N,12124.52091,E,7.546,216.14,131017,,,A*6C

1507881476.11089754,$GPRMC,075759.00,A,3110.28857,N,12124.51859,E,8.144,231.35,131017,,,A*6A

1507881477.10800242,$GPRMC,075800.00,A,3110.28766,N,12124.51587,E,8.832,237.84,131017,,,A*6E

1507881478.10740304,$GPRMC,075801.00,A,3110.28705,N,12124.51308,E,9.533,244.52,131017,,,A*69

1507881479.10760307,$GPRMC,075802.00,A,3110.28666,N,12124.50974,E,10.242,251.05,131017,,,A*51

1507881480.11349392,$GPRMC,075803.00,A,3110.28610,N,12124.50621,E,10.851,253.17,131017,,,A*57

1507881481.10775256,$GPRMC,075804.00,A,3110.28533,N,12124.50261,E,11.478,254.29,131017,,,A*5E

1507881482.1063869,$GPRMC,075805.00,A,3110.28460,N,12124.49883,E,11.878,256.23,131017,,,A*52

1507881483.10505414,$GPRMC,075806.00,A,3110.28405,N,12124.49492,E,11.802,257.04,131017,,,A*57

1507881484.10697484,$GPRMC,075807.00,A,3110.28340,N,12124.49118,E,11.305,256.98,131017,,,A*5F

1507881485.10648322,$GPRMC,075808.00,A,3110.28281,N,12124.48753,E,11.040,257.18,131017,,,A*5F

1507881486.10885954,$GPRMC,075809.00,A,3110.28236,N,12124.48387,E,10.889,257.71,131017,,,A*5C

1507881487.10765052,$GPRMC,075810.00,A,3110.28182,N,12124.48062,E,9.948,257.34,131017,,,A*65

1507881488.10785103,$GPRMC,075811.00,A,3110.28130,N,12124.47758,E,8.967,257.15,131017,,,A*63

1507881489.10672879,$GPRMC,075812.00,A,3110.28076,N,12124.47489,E,8.162,257.21,131017,,,A*66

1507881490.10689998,$GPRMC,075813.00,A,3110.28027,N,12124.47243,E,7.614,257.47,131017,,,A*6A

1507881491.10713482,$GPRMC,075814.00,A,3110.27985,N,12124.47007,E,7.168,257.25,131017,,,A*69

1507881492.10871816,$GPRMC,075815.00,A,3110.27932,N,12124.46789,E,6.851,257.34,131017,,,A*66

1507881493.11285973,$GPRMC,075816.00,A,3110.27902,N,12124.46570,E,6.635,257.08,131017,,,A*61

1507881494.10874939,$GPRMC,075817.00,A,3110.27861,N,12124.46366,E,6.653,256.67,131017,,,A*6D

1507881495.10801554,$GPRMC,075818.00,A,3110.27817,N,12124.46174,E,6.440,256.17,131017,,,A*65

1507881496.1075058,$GPRMC,075819.00,A,3110.27787,N,12124.45975,E,6.193,256.05,131017,,,A*60

1507881497.10594273,$GPRMC,075820.00,A,3110.27747,N,12124.45794,E,5.644,255.72,131017,,,A*6A

1507881498.10857439,$GPRMC,075821.00,A,3110.27731,N,12124.45633,E,4.820,256.06,131017,,,A*6B

1507881499.10687852,$GPRMC,075822.00,A,3110.27701,N,12124.45523,E,3.581,256.60,131017,,,A*68

1507881500.10746169,$GPRMC,075823.00,A,3110.27693,N,12124.45404,E,3.906,256.48,131017,,,A*6E

1507881501.10786271,$GPRMC,075824.00,A,3110.27641,N,12124.45316,E,4.472,257.17,131017,,,A*60

1507881502.10701036,$GPRMC,075825.00,A,3110.27625,N,12124.45143,E,5.569,256.61,131017,,,A*6B

1507881503.10585666,$GPRMC,075826.00,A,3110.27579,N,12124.44985,E,6.100,256.60,131017,,,A*68

1507881504.1048615,$GPRMC,075827.00,A,3110.27556,N,12124.44796,E,6.093,255.83,131017,,,A*6D

1507881505.1090188,$GPRMC,075828.00,A,3110.27525,N,12124.44610,E,6.205,255.08,131017,,,A*67

1507881506.1050415,$GPRMC,075829.00,A,3110.27462,N,12124.44450,E,6.440,255.69,131017,,,A*62

1507881507.10496974,$GPRMC,075830.00,A,3110.27444,N,12124.44248,E,6.515,256.41,131017,,,A*69

1507881508.10389185,$GPRMC,075831.00,A,3110.27418,N,12124.44085,E,5.476,257.06,131017,,,A*67

1507881509.10277128,$GPRMC,075832.00,A,3110.27400,N,12124.43925,E,4.375,256.88,131017,,,A*6B

1507881510.10837555,$GPRMC,075833.00,A,3110.27418,N,12124.43736,E,4.650,257.12,131017,,,A*6F

1507881511.10486436,$GPRMC,075834.00,A,3110.27479,N,12124.43562,E,5.163,258.93,131017,,,A*6C

1507881512.1040988,$GPRMC,075835.00,A,3110.27485,N,12124.43419,E,4.265,260.01,131017,,,A*67

1507881513.10439515,$GPRMC,075836.00,A,3110.27534,N,12124.43258,E,2.954,259.62,131017,,,A*6C

1507881514.10353184,$GPRMC,075837.00,A,3110.27529,N,12124.43199,E,1.617,258.93,131017,,,A*6B

1507881515.10507154,$GPRMC,075838.00,A,3110.27463,N,12124.43196,E,1.865,258.96,131017,,,A*6A

1507881516.10458016,$GPRMC,075839.00,A,3110.27442,N,12124.43140,E,2.236,,131017,,,A*72

1507881517.10697436,$GPRMC,075840.00,A,3110.27443,N,12124.43075,E,2.226,,131017,,,A*7B

1507881518.1035521,$GPRMC,075841.00,A,3110.27459,N,12124.42992,E,2.120,,131017,,,A*75

1507881519.10368919,$GPRMC,075842.00,A,3110.27472,N,12124.42973,E,1.076,,131017,,,A*71

1507881520.10470557,$GPRMC,075843.00,A,3110.27433,N,12124.42968,E,0.219,,131017,,,A*75

1507881521.10405278,$GPRMC,075844.00,A,3110.27423,N,12124.42983,E,0.007,,131017,,,A*7B

1507881522.10412073,$GPRMC,075845.00,A,3110.27412,N,12124.42988,E,0.014,,131017,,,A*71

1507881523.10557532,$GPRMC,075846.00,A,3110.27405,N,12124.42999,E,0.006,,131017,,,A*77

1507881524.10386467,$GPRMC,075847.00,A,3110.27376,N,12124.43008,E,0.765,259.54,131017,,,A*66

1507881525.10407448,$GPRMC,075848.00,A,3110.27340,N,12124.42986,E,1.921,259.09,131017,,,A*65

1507881526.10494304,$GPRMC,075849.00,A,3110.27306,N,12124.42918,E,2.892,258.34,131017,,,A*64

1507881527.10303307,$GPRMC,075850.00,A,3110.27277,N,12124.42834,E,3.157,258.09,131017,,,A*6B

1507881528.10046673,$GPRMC,075851.00,A,3110.27266,N,12124.42715,E,3.945,258.48,131017,,,A*68

1507881529.10333395,$GPRMC,075852.00,A,3110.27264,N,12124.42588,E,3.455,258.65,131017,,,A*6C

1507881530.10324097,$GPRMC,075853.00,A,3110.27249,N,12124.42441,E,3.952,258.12,131017,,,A*6C

1507881531.10041595,$GPRMC,075854.00,A,3110.27147,N,12124.42278,E,5.099,256.30,131017,,,A*6C

1507881532.10178876,$GPRMC,075855.00,A,3110.27005,N,12124.42128,E,5.548,255.80,131017,,,A*6D

1507881533.10004807,$GPRMC,075856.00,A,3110.26935,N,12124.41936,E,5.771,256.38,131017,,,A*69

1507881534.10452199,$GPRMC,075857.00,A,3110.26897,N,12124.41743,E,5.555,256.18,131017,,,A*6B

1507881535.1007092,$GPRMC,075858.00,A,3110.26816,N,12124.41561,E,5.755,256.40,131017,,,A*60

1507881536.10326099,$GPRMC,075859.00,A,3110.26738,N,12124.41410,E,6.001,256.46,131017,,,A*66

1507881537.10185766,$GPRMC,075900.00,A,3110.26687,N,12124.41246,E,5.360,255.75,131017,,,A*6F

1507881538.10208488,$GPRMC,075901.00,A,3110.26642,N,12124.41076,E,5.005,255.56,131017,,,A*67

1507881539.10056615,$GPRMC,075902.00,A,3110.26611,N,12124.40888,E,5.684,255.80,131017,,,A*6E

1507881540.10499454,$GPRMC,075903.00,A,3110.26608,N,12124.40659,E,6.753,258.12,131017,,,A*6B

1507881541.10432935,$GPRMC,075904.00,A,3110.26564,N,12124.40433,E,7.236,258.52,131017,,,A*68

1507881542.10276341,$GPRMC,075905.00,A,3110.26558,N,12124.40130,E,8.220,259.95,131017,,,A*62

1507881543.10284567,$GPRMC,075906.00,A,3110.26525,N,12124.39836,E,9.372,259.99,131017,,,A*61

1507881544.10626507,$GPRMC,075907.00,A,3110.26498,N,12124.39513,E,9.928,258.53,131017,,,A*6F

1507881545.10596633,$GPRMC,075908.00,A,3110.26446,N,12124.39191,E,10.247,257.73,131017,,,A*5A

1507881546.10324764,$GPRMC,075909.00,A,3110.26376,N,12124.38865,E,10.628,255.60,131017,,,A*51

1507881547.10479975,$GPRMC,075910.00,A,3110.26279,N,12124.38540,E,10.959,254.44,131017,,,A*53

1507881548.10569859,$GPRMC,075911.00,A,3110.26200,N,12124.38210,E,9.963,257.93,131017,,,A*66

1507881549.10583115,$GPRMC,075912.00,A,3110.26140,N,12124.37919,E,8.331,260.27,131017,,,A*68

1507881550.10880065,$GPRMC,075913.00,A,3110.26132,N,12124.37647,E,7.217,263.44,131017,,,A*64

1507881551.10987425,$GPRMC,075914.00,A,3110.26133,N,12124.37413,E,6.471,270.95,131017,,,A*68

1507881552.11074638,$GPRMC,075915.00,A,3110.26159,N,12124.37204,E,5.984,277.14,131017,,,A*6F

1507881553.10827756,$GPRMC,075916.00,A,3110.26188,N,12124.37030,E,5.617,284.71,131017,,,A*6F

1507881554.1064837,$GPRMC,075917.00,A,3110.26246,N,12124.36870,E,5.422,291.88,131017,,,A*64

1507881555.10650206,$GPRMC,075918.00,A,3110.26333,N,12124.36736,E,5.600,303.92,131017,,,A*66

1507881556.10569668,$GPRMC,075919.00,A,3110.26440,N,12124.36604,E,5.876,310.30,131017,,,A*61

1507881557.10381413,$GPRMC,075920.00,A,3110.26569,N,12124.36502,E,6.959,321.01,131017,,,A*6B

1507881558.1059556,$GPRMC,075921.00,A,3110.26750,N,12124.36399,E,6.778,324.75,131017,,,A*6D

1507881559.10763407,$GPRMC,075922.00,A,3110.26940,N,12124.36349,E,6.231,327.91,131017,,,A*6D

1507881560.10382485,$GPRMC,075923.00,A,3110.27200,N,12124.36295,E,10.193,332.34,131017,,,A*55

1507881561.10030341,$GPRMC,075924.00,A,3110.27499,N,12124.36156,E,12.456,332.94,131017,,,A*5C

1507881562.10095024,$GPRMC,075925.00,A,3110.27914,N,12124.36022,E,13.550,340.21,131017,,,A*5A

1507881563.10187674,$GPRMC,075926.00,A,3110.28373,N,12124.35852,E,15.348,342.97,131017,,,A*57

1507881564.10220528,$GPRMC,075927.00,A,3110.28850,N,12124.35706,E,15.982,347.17,131017,,,A*53

1507881565.1063869,$GPRMC,075928.00,A,3110.29374,N,12124.35466,E,18.039,345.87,131017,,,A*5A

1507881566.1048739,$GPRMC,075929.00,A,3110.29868,N,12124.35317,E,16.643,346.12,131017,,,A*56

1507881567.10377932,$GPRMC,075930.00,A,3110.30396,N,12124.35129,E,18.187,342.69,131017,,,A*5A

1507881568.10153127,$GPRMC,075931.00,A,3110.30902,N,12124.34930,E,18.842,339.07,131017,,,A*59

1507881569.10583901,$GPRMC,075932.00,A,3110.31393,N,12124.34732,E,17.183,339.18,131017,,,A*50

1507881570.10639763,$GPRMC,075933.00,A,3110.31864,N,12124.34587,E,16.775,341.05,131017,,,A*53

1507881571.10779214,$GPRMC,075934.00,A,3110.32298,N,12124.34418,E,15.309,339.14,131017,,,A*5A

1507881572.10460448,$GPRMC,075935.00,A,3110.32759,N,12124.34260,E,15.876,339.69,131017,,,A*53

1507881573.10456133,$GPRMC,075936.00,A,3110.33184,N,12124.34102,E,15.392,339.95,131017,,,A*52

1507881574.10687017,$GPRMC,075937.00,A,3110.33640,N,12124.33960,E,16.069,342.32,131017,,,A*52

1507881575.10744405,$GPRMC,075938.00,A,3110.34111,N,12124.33829,E,15.860,345.33,131017,,,A*51

1507881576.10533333,$GPRMC,075939.00,A,3110.34616,N,12124.33703,E,17.288,346.54,131017,,,A*5B

1507881577.10856056,$GPRMC,075940.00,A,3110.35100,N,12124.33543,E,17.008,342.43,131017,,,A*5A

1507881578.10316849,$GPRMC,075941.00,A,3110.35610,N,12124.33413,E,19.702,343.34,131017,,,A*5B

1507881579.09989595,$GPRMC,075942.00,A,3110.36159,N,12124.33277,E,18.603,349.30,131017,,,A*5A

1507881580.10346746,$GPRMC,075943.00,A,3110.36684,N,12124.33270,E,18.854,355.16,131017,,,A*5E

1507881581.10349441,$GPRMC,075944.00,A,3110.37187,N,12124.33112,E,18.991,347.07,131017,,,A*50

1507881582.10367513,$GPRMC,075945.00,A,3110.37681,N,12124.32933,E,18.283,343.31,131017,,,A*53

1507881583.10239983,$GPRMC,075946.00,A,3110.38162,N,12124.32759,E,18.168,341.00,131017,,,A*51

1507881584.10526371,$GPRMC,075947.00,A,3110.38615,N,12124.32595,E,17.305,340.80,131017,,,A*5A

1507881585.10262346,$GPRMC,075948.00,A,3110.39057,N,12124.32457,E,16.950,341.57,131017,,,A*5B

1507881586.10589719,$GPRMC,075949.00,A,3110.39476,N,12124.32317,E,15.801,343.58,131017,,,A*55

1507881587.10298538,$GPRMC,075950.00,A,3110.39921,N,12124.32239,E,15.450,345.51,131017,,,A*58

1507881588.1047442,$GPRMC,075951.00,A,3110.40372,N,12124.32145,E,15.553,346.48,131017,,,A*5A

1507881589.10451889,$GPRMC,075952.00,A,3110.40804,N,12124.32060,E,15.237,346.98,131017,,,A*5D

1507881590.10468769,$GPRMC,075953.00,A,3110.41205,N,12124.31967,E,14.575,346.42,131017,,,A*5C

1507881591.10057259,$GPRMC,075954.00,A,3110.41610,N,12124.31814,E,14.430,344.36,131017,,,A*5F

1507881592.10388184,$GPRMC,075955.00,A,3110.42031,N,12124.31688,E,14.276,343.95,131017,,,A*59

1507881593.10229564,$GPRMC,075956.00,A,3110.42450,N,12124.31621,E,13.994,347.13,131017,,,A*50

1507881594.10479808,$GPRMC,075957.00,A,3110.42841,N,12124.31511,E,13.629,348.05,131017,,,A*5C

1507881595.10006189,$GPRMC,075958.00,A,3110.43199,N,12124.31399,E,13.099,347.33,131017,,,A*5F

1507881596.10057974,$GPRMC,075959.00,A,3110.43534,N,12124.31303,E,12.378,346.48,131017,,,A*5E

1507881597.10243893,$GPRMC,080000.00,A,3110.43816,N,12124.31281,E,10.665,347.87,131017,,,A*5E

1507881598.10374236,$GPRMC,080001.00,A,3110.44070,N,12124.31228,E,9.529,348.11,131017,,,A*60

1507881599.10083675,$GPRMC,080002.00,A,3110.44306,N,12124.31160,E,8.849,347.23,131017,,,A*6A

1507881600.10455608,$GPRMC,080003.00,A,3110.44495,N,12124.31103,E,7.671,344.71,131017,,,A*6D

1507881601.10347533,$GPRMC,080004.00,A,3110.44668,N,12124.31061,E,6.767,345.20,131017,,,A*6D

1507881602.10329247,$GPRMC,080005.00,A,3110.44823,N,12124.31023,E,6.028,345.35,131017,,,A*63

1507881603.10228324,$GPRMC,080006.00,A,3110.44964,N,12124.30980,E,5.498,345.90,131017,,,A*60

1507881604.10379028,$GPRMC,080007.00,A,3110.45092,N,12124.30932,E,4.651,346.10,131017,,,A*64

1507881605.10275578,$GPRMC,080008.00,A,3110.45211,N,12124.30888,E,4.220,346.70,131017,,,A*66

1507881606.10615492,$GPRMC,080009.00,A,3110.45297,N,12124.30878,E,3.311,348.75,131017,,,A*69

1507881607.10638785,$GPRMC,080010.00,A,3110.45377,N,12124.30876,E,2.970,349.17,131017,,,A*69

1507881608.10659575,$GPRMC,080011.00,A,3110.45433,N,12124.30838,E,2.527,349.38,131017,,,A*66

1507881609.10533953,$GPRMC,080012.00,A,3110.45485,N,12124.30816,E,2.251,352.43,131017,,,A*64

1507881610.10610414,$GPRMC,080013.00,A,3110.45531,N,12124.30814,E,1.943,352.44,131017,,,A*65

1507881611.1054101,$GPRMC,080014.00,A,3110.45567,N,12124.30800,E,1.640,352.39,131017,,,A*62

1507881612.10779905,$GPRMC,080015.00,A,3110.45582,N,12124.30785,E,0.788,352.83,131017,,,A*6F

1507881613.10790944,$GPRMC,080016.00,A,3110.45616,N,12124.30754,E,1.040,352.89,131017,,,A*66

1507881614.10623908,$GPRMC,080017.00,A,3110.45651,N,12124.30724,E,1.424,357.89,131017,,,A*60

1507881615.106143,$GPRMC,080018.00,A,3110.45690,N,12124.30704,E,1.509,359.82,131017,,,A*6B

1507881616.10814333,$GPRMC,080019.00,A,3110.45743,N,12124.30688,E,1.649,2.41,131017,,,A*65

1507881617.10664105,$GPRMC,080020.00,A,3110.45781,N,12124.30675,E,1.614,9.23,131017,,,A*64

1507881618.10866952,$GPRMC,080021.00,A,3110.45829,N,12124.30687,E,1.884,14.33,131017,,,A*5F

1507881619.10680604,$GPRMC,080022.00,A,3110.45880,N,12124.30711,E,2.097,19.83,131017,,,A*5E

1507881620.10584807,$GPRMC,080023.00,A,3110.45933,N,12124.30748,E,2.279,25.39,131017,,,A*56

1507881621.1076436,$GPRMC,080024.00,A,3110.45988,N,12124.30789,E,2.328,26.21,131017,,,A*53

1507881622.10847282,$GPRMC,080025.00,A,3110.46044,N,12124.30831,E,2.435,32.31,131017,,,A*5B

1507881623.11048961,$GPRMC,080026.00,A,3110.46094,N,12124.30880,E,2.343,32.81,131017,,,A*52

1507881624.11654949,$GPRMC,080027.00,A,3110.46150,N,12124.30940,E,2.667,35.31,131017,,,A*58

1507881625.11739397,$GPRMC,080028.00,A,3110.46209,N,12124.30991,E,2.654,36.57,131017,,,A*57

1507881626.11320138,$GPRMC,080029.00,A,3110.46269,N,12124.31044,E,2.506,37.20,131017,,,A*55

1507881627.11045957,$GPRMC,080030.00,A,3110.46322,N,12124.31097,E,2.369,39.11,131017,,,A*5E

1507881628.10881209,$GPRMC,080031.00,A,3110.46384,N,12124.31136,E,2.653,36.88,131017,,,A*5A

1507881629.11176443,$GPRMC,080032.00,A,3110.46445,N,12124.31176,E,2.580,35.12,131017,,,A*5A

1507881630.11569357,$GPRMC,080033.00,A,3110.46512,N,12124.31207,E,2.294,32.12,131017,,,A*58

1507881631.12041545,$GPRMC,080034.00,A,3110.46574,N,12124.31227,E,2.000,31.87,131017,,,A*5D

1507881632.11074185,$GPRMC,080035.00,A,3110.46634,N,12124.31243,E,2.116,26.97,131017,,,A*58

1507881633.11083984,$GPRMC,080036.00,A,3110.46689,N,12124.31258,E,1.941,23.75,131017,,,A*57

1507881634.10953736,$GPRMC,080037.00,A,3110.46728,N,12124.31267,E,1.353,23.25,131017,,,A*5C

1507881635.1095643,$GPRMC,080038.00,A,3110.46751,N,12124.31276,E,0.796,22.95,131017,,,A*5B

1507881636.11156487,$GPRMC,080039.00,A,3110.46763,N,12124.31281,E,0.347,22.81,131017,,,A*5E

1507881637.11237383,$GPRMC,080040.00,A,3110.46767,N,12124.31284,E,0.197,22.83,131017,,,A*5C

1507881638.11141515,$GPRMC,080041.00,A,3110.46774,N,12124.31284,E,0.554,21.89,131017,,,A*5D

1507881639.1084373,$GPRMC,080042.00,A,3110.46792,N,12124.31288,E,0.875,19.85,131017,,,A*53

1507881640.11118364,$GPRMC,080043.00,A,3110.46819,N,12124.31292,E,1.011,17.98,131017,,,A*5C

1507881641.11018109,$GPRMC,080044.00,A,3110.46839,N,12124.31297,E,0.833,18.17,131017,,,A*5D

1507881642.11108351,$GPRMC,080045.00,A,3110.46852,N,12124.31300,E,0.414,18.06,131017,,,A*57

1507881643.11133218,$GPRMC,080046.00,A,3110.46862,N,12124.31303,E,0.501,18.42,131017,,,A*51

1507881644.10780644,$GPRMC,080047.00,A,3110.46872,N,12124.31306,E,0.351,18.49,131017,,,A*5C

1507881645.10790968,$GPRMC,080048.00,A,3110.46879,N,12124.31306,E,0.242,18.45,131017,,,A*57

1507881646.10842633,$GPRMC,080049.00,A,3110.46882,N,12124.31303,E,0.129,,131017,,,A*7F

1507881647.10745168,$GPRMC,080050.00,A,3110.46888,N,12124.31302,E,0.286,18.38,131017,,,A*56

1507881648.1103313,$GPRMC,080051.00,A,3110.46899,N,12124.31303,E,0.499,18.37,131017,,,A*51

1507881649.10694814,$GPRMC,080052.00,A,3110.46910,N,12124.31304,E,0.404,18.23,131017,,,A*54

1507881650.10770798,$GPRMC,080053.00,A,3110.46917,N,12124.31300,E,0.182,,131017,,,A*7B

1507881651.10750794,$GPRMC,080054.00,A,3110.46921,N,12124.31295,E,0.024,,131017,,,A*79

1507881652.10744119,$GPRMC,080055.00,A,3110.46926,N,12124.31294,E,0.262,18.33,131017,,,A*59

1507881653.10726905,$GPRMC,080056.00,A,3110.46939,N,12124.31295,E,0.603,17.34,131017,,,A*5E

1507881654.10811472,$GPRMC,080057.00,A,3110.46959,N,12124.31299,E,0.664,17.58,131017,,,A*5E

1507881655.11178493,$GPRMC,080058.00,A,3110.46970,N,12124.31302,E,0.205,,131017,,,A*7F

1507881656.10728717,$GPRMC,080059.00,A,3110.46972,N,12124.31301,E,0.014,,131017,,,A*7D

1507881657.10721922,$GPRMC,080100.00,A,3110.46968,N,12124.31299,E,0.006,,131017,,,A*78

1507881658.10699129,$GPRMC,080101.00,A,3110.46964,N,12124.31299,E,0.013,,131017,,,A*71

1507881659.10724878,$GPRMC,080102.00,A,3110.46954,N,12124.31304,E,0.005,,131017,,,A*73

1507881660.1084156,$GPRMC,080103.00,A,3110.46945,N,12124.31307,E,0.006,,131017,,,A*72

1507881661.10828352,$GPRMC,080104.00,A,3110.46936,N,12124.31312,E,0.011,,131017,,,A*73

1507881662.10631251,$GPRMC,080105.00,A,3110.46929,N,12124.31315,E,0.005,,131017,,,A*7E

1507881663.10670471,$GPRMC,080106.00,A,3110.46924,N,12124.31318,E,0.018,,131017,,,A*71

1507881664.10856104,$GPRMC,080107.00,A,3110.46921,N,12124.31321,E,0.012,,131017,,,A*75

1507881665.10463238,$GPRMC,080108.00,A,3110.46919,N,12124.31323,E,0.001,,131017,,,A*71

1507881666.10426569,$GPRMC,080109.00,A,3110.46917,N,12124.31324,E,0.011,,131017,,,A*78

1507881667.10506392,$GPRMC,080110.00,A,3110.46925,N,12124.31321,E,0.006,,131017,,,A*72

1507881668.10674691,$GPRMC,080111.00,A,3110.46927,N,12124.31306,E,0.008,,131017,,,A*7A

1507881669.10708213,$GPRMC,080112.00,A,3110.46930,N,12124.31288,E,0.009,,131017,,,A*79

1507881670.10723424,$GPRMC,080113.00,A,3110.46932,N,12124.31269,E,0.018,,131017,,,A*75

1507881671.10731602,$GPRMC,080114.00,A,3110.46936,N,12124.31250,E,0.010,,131017,,,A*74

1507881672.1081748,$GPRMC,080115.00,A,3110.46936,N,12124.31232,E,0.015,,131017,,,A*74

1507881673.10564208,$GPRMC,080116.00,A,3110.46939,N,12124.31215,E,0.009,,131017,,,A*70

1507881674.10316849,$GPRMC,080117.00,A,3110.46945,N,12124.31201,E,0.011,,131017,,,A*76

1507881675.10300827,$GPRMC,080118.00,A,3110.46952,N,12124.31187,E,0.010,,131017,,,A*73

1507881676.10263753,$GPRMC,080119.00,A,3110.46958,N,12124.31178,E,0.003,,131017,,,A*7A

1507881677.10301423,$GPRMC,080120.00,A,3110.46963,N,12124.31167,E,0.011,,131017,,,A*75

1507881678.10649538,$GPRMC,080121.00,A,3110.46967,N,12124.31156,E,0.011,,131017,,,A*72

1507881679.10468268,$GPRMC,080122.00,A,3110.46969,N,12124.31148,E,0.010,,131017,,,A*71

1507881680.10632086,$GPRMC,080123.00,A,3110.46970,N,12124.31143,E,0.011,,131017,,,A*72

1507881681.10543299,$GPRMC,080124.00,A,3110.46969,N,12124.31141,E,0.012,,131017,,,A*7C

1507881682.10734916,$GPRMC,080125.00,A,3110.46971,N,12124.31140,E,0.003,,131017,,,A*75

1507881683.10540724,$GPRMC,080126.00,A,3110.46972,N,12124.31139,E,0.011,,131017,,,A*78

1507881684.10866737,$GPRMC,080127.00,A,3110.46974,N,12124.31139,E,0.012,,131017,,,A*7C

1507881685.11245394,$GPRMC,080128.00,A,3110.46976,N,12124.31137,E,0.017,,131017,,,A*7A

1507881686.10745239,$GPRMC,080129.00,A,3110.46979,N,12124.31135,E,0.005,,131017,,,A*75

1507881687.10826087,$GPRMC,080130.00,A,3110.46981,N,12124.31134,E,0.013,,131017,,,A*7C

1507881688.1075716,$GPRMC,080131.00,A,3110.46981,N,12124.31133,E,0.010,,131017,,,A*79

1507881689.10831761,$GPRMC,080132.00,A,3110.46980,N,12124.31134,E,0.012,,131017,,,A*7E

1507881690.10827446,$GPRMC,080133.00,A,3110.46979,N,12124.31134,E,0.012,,131017,,,A*79

1507881691.11315179,$GPRMC,080134.00,A,3110.46978,N,12124.31132,E,0.007,,131017,,,A*7D

1507881692.10940099,$GPRMC,080135.00,A,3110.46974,N,12124.31133,E,0.003,,131017,,,A*75

1507881693.1084671,$GPRMC,080136.00,A,3110.46974,N,12124.31133,E,0.004,,131017,,,A*71

1507881694.10846496,$GPRMC,080137.00,A,3110.46976,N,12124.31132,E,0.006,,131017,,,A*71

1507881695.10793567,$GPRMC,080138.00,A,3110.46977,N,12124.31130,E,0.009,,131017,,,A*72

1507881696.10799313,$GPRMC,080139.00,A,3110.46978,N,12124.31129,E,0.012,,131017,,,A*7E

1507881697.10957551,$GPRMC,080140.00,A,3110.46977,N,12124.31126,E,0.008,,131017,,,A*7B

1507881698.10856628,$GPRMC,080141.00,A,3110.46973,N,12124.31122,E,0.011,,131017,,,A*72

1507881699.10956526,$GPRMC,080142.00,A,3110.46973,N,12124.31118,E,0.010,,131017,,,A*79

1507881700.10819483,$GPRMC,080143.00,A,3110.46977,N,12124.31118,E,0.010,,131017,,,A*7C

1507881701.10744834,$GPRMC,080144.00,A,3110.46980,N,12124.31118,E,0.009,,131017,,,A*7B

1507881702.11064577,$GPRMC,080145.00,A,3110.46981,N,12124.31121,E,0.007,,131017,,,A*7F

1507881703.11001229,$GPRMC,080146.00,A,3110.46982,N,12124.31124,E,0.014,,131017,,,A*78

1507881704.1071341,$GPRMC,080147.00,A,3110.46986,N,12124.31127,E,0.018,,131017,,,D*77

1507881705.10520506,$GPRMC,080148.00,A,3110.46989,N,12124.31129,E,0.019,,131017,,,D*78

1507881706.1045785,$GPRMC,080149.00,A,3110.46992,N,12124.31132,E,0.002,,131017,,,D*73

1507881707.10432506,$GPRMC,080150.00,A,3110.46994,N,12124.31135,E,0.011,,131017,,,D*78

1507881708.10914087,$GPRMC,080151.00,A,3110.46993,N,12124.31137,E,0.012,,131017,,,D*7F

1507881709.10399103,$GPRMC,080152.00,A,3110.46994,N,12124.31140,E,0.006,,131017,,,D*7E

1507881710.10356998,$GPRMC,080153.00,A,3110.46998,N,12124.31143,E,0.005,,131017,,,D*73

1507881711.10329318,$GPRMC,080154.00,A,3110.47002,N,12124.31144,E,0.162,,131017,,,D*78

1507881712.10401869,$GPRMC,080155.00,A,3110.47009,N,12124.31148,E,0.461,17.95,131017,,,D*5C

1507881713.10456204,$GPRMC,080156.00,A,3110.47024,N,12124.31159,E,0.815,18.27,131017,,,D*59

1507881714.12288094,$GPRMC,080157.00,A,3110.47047,N,12124.31151,E,0.800,,131017,,,D*73

1507881715.11448002,$GPRMC,080158.00,A,3110.47076,N,12124.31151,E,1.253,18.53,131017,,,D*52

1507881716.11301041,$GPRMC,080159.00,A,3110.47102,N,12124.31172,E,1.029,18.64,131017,,,D*5B

1507881717.11240935,$GPRMC,080200.00,A,3110.47122,N,12124.31190,E,0.628,18.64,131017,,,D*5C

1507881718.11321211,$GPRMC,080201.00,A,3110.47133,N,12124.31205,E,0.123,,131017,,,D*7B

1507881719.11383605,$GPRMC,080202.00,A,3110.47139,N,12124.31218,E,0.019,,131017,,,D*76

1507881720.11834598,$GPRMC,080203.00,A,3110.47166,N,12124.31234,E,0.018,,131017,,,D*72

1507881721.11332488,$GPRMC,080204.00,A,3110.47175,N,12124.31249,E,0.030,,131017,,,D*77

1507881722.11421609,$GPRMC,080205.00,A,3110.47189,N,12124.31261,E,0.018,,131017,,,D*75

1507881723.11717224,$GPRMC,080206.00,A,3110.47209,N,12124.31270,E,0.021,,131017,,,D*77

1507881724.11777759,$GPRMC,080207.00,A,3110.47224,N,12124.31276,E,0.022,,131017,,,D*7C

1507881725.11032367,$GPRMC,080208.00,A,3110.47235,N,12124.31282,E,0.028,,131017,,,D*72

1507881726.11345601,$GPRMC,080209.00,A,3110.47244,N,12124.31286,E,0.010,,131017,,,D*7A

1507881727.11356854,$GPRMC,080210.00,A,3110.47250,N,12124.31286,E,0.069,,131017,,,D*79

1507881728.11408901,$GPRMC,080211.00,A,3110.47261,N,12124.31292,E,0.035,,131017,,,D*76

1507881729.11263275,$GPRMC,080212.00,A,3110.47267,N,12124.31297,E,0.005,,131017,,,D*75

1507881730.11332726,$GPRMC,080213.00,A,3110.47278,N,12124.31296,E,0.035,,131017,,,D*78

1507881731.11536765,$GPRMC,080214.00,A,3110.47279,N,12124.31293,E,0.003,,131017,,,D*7E

1507881732.12038445,$GPRMC,080215.00,A,3110.47282,N,12124.31287,E,0.010,,131017,,,D*7C

1507881733.1165514,$GPRMC,080216.00,A,3110.47285,N,12124.31281,E,0.030,,131017,,,D*7C

1507881734.113415,$GPRMC,080217.00,A,3110.47289,N,12124.31269,E,0.014,,131017,,,D*71

1507881735.11241674,$GPRMC,080218.00,A,3110.47290,N,12124.31259,E,0.014,,131017,,,D*75

1507881736.11536145,$GPRMC,080219.00,A,3110.47291,N,12124.31248,E,0.010,,131017,,,D*71

1507881737.11698866,$GPRMC,080220.00,A,3110.47293,N,12124.31237,E,0.022,,131017,,,D*70

1507881738.11923385,$GPRMC,080221.00,A,3110.47295,N,12124.31226,E,0.015,,131017,,,D*73

1507881739.11499047,$GPRMC,080222.00,A,3110.47293,N,12124.31230,E,0.127,,131017,,,D*71

1507881740.11200166,$GPRMC,080223.00,A,3110.47291,N,12124.31235,E,0.020,,131017,,,D*71

1507881741.10808444,$GPRMC,080224.00,A,3110.47290,N,12124.31236,E,0.025,,131017,,,D*71

1507881742.1103487,$GPRMC,080225.00,A,3110.47288,N,12124.31238,E,0.027,,131017,,,D*75

1507881743.11018419,$GPRMC,080226.00,A,3110.47287,N,12124.31240,E,0.050,,131017,,,D*76

1507881744.1083138,$GPRMC,080227.00,A,3110.47287,N,12124.31238,E,0.045,,131017,,,D*7C

1507881745.1102829,$GPRMC,080228.00,A,3110.47287,N,12124.31236,E,0.010,,131017,,,D*7D

1507881746.10741544,$GPRMC,080229.00,A,3110.47286,N,12124.31235,E,0.026,,131017,,,D*7B

1507881747.10819602,$GPRMC,080230.00,A,3110.47286,N,12124.31233,E,0.057,,131017,,,D*73

1507881748.10991716,$GPRMC,080231.00,A,3110.47285,N,12124.31232,E,0.027,,131017,,,D*77

1507881749.10921454,$GPRMC,080232.00,A,3110.47284,N,12124.31230,E,0.038,,131017,,,D*79

1507881750.11123347,$GPRMC,080233.00,A,3110.47282,N,12124.31228,E,0.018,,131017,,,D*75

1507881751.11012268,$GPRMC,080234.00,A,3110.47280,N,12124.31226,E,0.013,,131017,,,D*75

1507881752.1060431,$GPRMC,080235.00,A,3110.47278,N,12124.31224,E,0.033,,131017,,,D*73

1507881753.11008644,$GPRMC,080236.00,A,3110.47276,N,12124.31222,E,0.009,,131017,,,D*71

1507881754.10948968,$GPRMC,080237.00,A,3110.47274,N,12124.31220,E,0.020,,131017,,,D*7B

1507881755.11111188,$GPRMC,080238.00,A,3110.47272,N,12124.31219,E,0.031,,131017,,,D*78

1507881756.1127913,$GPRMC,080239.00,A,3110.47270,N,12124.31217,E,0.024,,131017,,,D*71

1507881757.11040711,$GPRMC,080240.00,A,3110.47268,N,12124.31216,E,0.019,,131017,,,D*79

1507881758.11004305,$GPRMC,080241.00,A,3110.47266,N,12124.31215,E,0.014,,131017,,,D*78

1507881759.10850072,$GPRMC,080242.00,A,3110.47263,N,12124.31215,E,0.012,,131017,,,D*78

1507881760.1098907,$GPRMC,080243.00,A,3110.47259,N,12124.31215,E,0.027,,131017,,,D*76

1507881761.10856724,$GPRMC,080244.00,A,3110.47255,N,12124.31214,E,0.023,,131017,,,D*78

1507881762.1103096,$GPRMC,080245.00,A,3110.47252,N,12124.31215,E,0.014,,131017,,,D*7B

1507881763.11222076,$GPRMC,080246.00,A,3110.47248,N,12124.31215,E,0.009,,131017,,,D*7F

1507881764.11171365,$GPRMC,080247.00,A,3110.47245,N,12124.31214,E,0.034,,131017,,,D*7C

1507881765.11158514,$GPRMC,080248.00,A,3110.47242,N,12124.31215,E,0.172,,131017,,,D*76

1507881766.11196733,$GPRMC,080249.00,A,3110.47250,N,12124.31222,E,0.655,20.12,131017,,,D*5D

1507881767.11173582,$GPRMC,080250.00,A,3110.47264,N,12124.31233,E,0.779,20.30,131017,,,D*5D

1507881768.11623716,$GPRMC,080251.00,A,3110.47286,N,12124.31244,E,1.109,19.73,131017,,,D*5D

1507881769.1118331,$GPRMC,080252.00,A,3110.47311,N,12124.31255,E,1.068,18.47,131017,,,D*51

1507881770.10818863,$GPRMC,080253.00,A,3110.47334,N,12124.31265,E,0.694,18.42,131017,,,D*55

1507881771.11165905,$GPRMC,080254.00,A,3110.47344,N,12124.31270,E,0.063,,131017,,,D*7E

1507881772.11144638,$GPRMC,080255.00,A,3110.47345,N,12124.31272,E,0.025,,131017,,,D*7E

1507881773.11239696,$GPRMC,080256.00,A,3110.47344,N,12124.31275,E,0.023,,131017,,,D*7D

1507881774.12573266,$GPRMC,080257.00,A,3110.47345,N,12124.31277,E,0.018,,131017,,,D*77

1507881775.11202383,$GPRMC,080258.00,A,3110.47347,N,12124.31279,E,0.031,,131017,,,D*7F

1507881776.11133742,$GPRMC,080259.00,A,3110.47347,N,12124.31280,E,0.025,,131017,,,D*7D

1507881777.11295223,$GPRMC,080300.00,A,3110.47348,N,12124.31282,E,0.020,,131017,,,D*78

1507881778.11037564,$GPRMC,080301.00,A,3110.47347,N,12124.31283,E,0.017,,131017,,,D*73

1507881779.11194539,$GPRMC,080302.00,A,3110.47346,N,12124.31285,E,0.029,,131017,,,D*7A

1507881780.11717844,$GPRMC,080303.00,A,3110.47344,N,12124.31286,E,0.030,,131017,,,D*72

1507881781.10698819,$GPRMC,080304.00,A,3110.47341,N,12124.31288,E,0.038,,131017,,,D*76

1507881782.11386299,$GPRMC,080305.00,A,3110.47339,N,12124.31289,E,0.016,,131017,,,D*75

1507881783.10988164,$GPRMC,080306.00,A,3110.47339,N,12124.31290,E,0.168,,131017,,,D*76

1507881784.10762882,$GPRMC,080307.00,A,3110.47354,N,12124.31298,E,1.022,17.78,131017,,,D*5D

1507881785.1091764,$GPRMC,080308.00,A,3110.47393,N,12124.31312,E,1.728,17.48,131017,,,D*54

1507881786.10998249,$GPRMC,080309.00,A,3110.47444,N,12124.31333,E,2.120,17.23,131017,,,D*5B

1507881787.10901856,$GPRMC,080310.00,A,3110.47504,N,12124.31354,E,2.248,16.12,131017,,,D*59

1507881788.10845351,$GPRMC,080311.00,A,3110.47566,N,12124.31374,E,2.319,16.00,131017,,,D*58

1507881789.10772133,$GPRMC,080312.00,A,3110.47623,N,12124.31392,E,2.018,,131017,,,D*7A

1507881790.10835218,$GPRMC,080313.00,A,3110.47660,N,12124.31402,E,1.473,,131017,,,D*78

1507881791.11181808,$GPRMC,080314.00,A,3110.47691,N,12124.31386,E,1.144,,131017,,,D*7B

1507881792.1132443,$GPRMC,080315.00,A,3110.47704,N,12124.31373,E,0.876,,131017,,,D*74

1507881793.11119199,$GPRMC,080316.00,A,3110.47722,N,12124.31365,E,0.911,,131017,,,D*74

1507881794.10768509,$GPRMC,080317.00,A,3110.47722,N,12124.31348,E,0.869,,131017,,,D*74

1507881795.10610127,$GPRMC,080318.00,A,3110.47736,N,12124.31338,E,0.796,,131017,,,D*76

1507881796.1108501,$GPRMC,080319.00,A,3110.47720,N,12124.31299,E,0.980,,131017,,,D*73

1507881797.10771275,$GPRMC,080320.00,A,3110.47714,N,12124.31291,E,0.915,,131017,,,D*7A

1507881798.10130906,$GPRMC,080321.00,A,3110.47693,N,12124.31230,E,1.277,,131017,,,D*70

1507881799.1023922,$GPRMC,080322.00,A,3110.47662,N,12124.31208,E,0.550,,131017,,,D*75

1507881800.09978914,$GPRMC,080323.00,A,3110.47643,N,12124.31174,E,0.421,,131017,,,D*78

1507881801.09930205,$GPRMC,080324.00,A,3110.47645,N,12124.31150,E,0.437,,131017,,,D*78

1507881802.09982204,$GPRMC,080325.00,A,3110.47633,N,12124.31110,E,0.224,,131017,,,D*78

1507881803.10099268,$GPRMC,080326.00,A,3110.47633,N,12124.31107,E,0.295,,131017,,,D*77

1507881804.10044026,$GPRMC,080327.00,A,3110.47637,N,12124.31111,E,0.171,,131017,,,D*7C

1507881805.09986854,$GPRMC,080328.00,A,3110.47640,N,12124.31102,E,0.349,,131017,,,D*78

1507881806.09886241,$GPRMC,080329.00,A,3110.47637,N,12124.31092,E,0.389,,131017,,,D*7D

1507881807.10139132,$GPRMC,080330.00,A,3110.47633,N,12124.31084,E,0.321,,131017,,,D*74

1507881808.09901357,$GPRMC,080331.00,A,3110.47639,N,12124.31098,E,0.071,,131017,,,D*74

1507881809.0983243,$GPRMC,080332.00,A,3110.47639,N,12124.31103,E,0.157,,131017,,,D*71

1507881810.0970211,$GPRMC,080333.00,A,3110.47637,N,12124.31108,E,0.087,,131017,,,D*79

1507881811.10014868,$GPRMC,080334.00,A,3110.47635,N,12124.31112,E,0.177,,131017,,,D*79

1507881812.09938288,$GPRMC,080335.00,A,3110.47634,N,12124.31119,E,0.096,,131017,,,D*7C

1507881813.09582853,$GPRMC,080336.00,A,3110.47629,N,12124.31125,E,0.139,,131017,,,D*78

1507881814.09639525,$GPRMC,080337.00,A,3110.47631,N,12124.31129,E,0.250,,131017,,,D*70

1507881815.09673953,$GPRMC,080338.00,A,3110.47634,N,12124.31132,E,0.030,,131017,,,D*74

1507881816.09595656,$GPRMC,080339.00,A,3110.47635,N,12124.31138,E,0.162,,131017,,,D*78

1507881817.09595656,$GPRMC,080337.00,A,3110.47640,N,12124.31158,E,0.037,,131017,,,D*73

1507881818.09595656,$GPRMC,080338.00,A,3110.47643,N,12124.31170,E,0.118,,131017,,,D*79

1507881819.09595656,$GPRMC,080339.00,A,3110.47649,N,12124.31175,E,0.256,,131017,,,D*7E

1507881820.09595656,$GPRMC,080340.00,A,3110.47654,N,12124.31183,E,0.413,,131017,,,D*72

1507881821.09595656,$GPRMC,080341.00,A,3110.47662,N,12124.31172,E,0.054,,131017,,,D*7F

1507881822.09595656,$GPRMC,080342.00,A,3110.47657,N,12124.31172,E,0.130,,131017,,,D*79

1507881823.09595656,$GPRMC,080343.00,A,3110.47659,N,12124.31174,E,0.027,,131017,,,D*77

1507881824.09595656,$GPRMC,080344.00,A,3110.47660,N,12124.31167,E,0.304,,131017,,,D*7A

1507881825.09595656,$GPRMC,080345.00,A,3110.47655,N,12124.31160,E,0.163,,131017,,,D*79

1507881826.09595656,$GPRMC,080346.00,A,3110.47655,N,12124.31154,E,0.103,,131017,,,D*7B

1507881827.09595656,$GPRMC,080347.00,A,3110.47661,N,12124.31133,E,0.151,,131017,,,D*7B

1507881828.09595656,$GPRMC,080348.00,A,3110.47670,N,12124.31104,E,0.270,,131017,,,D*70

1507881829.09595656,$GPRMC,080349.00,A,3110.47672,N,12124.31070,E,0.099,,131017,,,D*74

1507881830.09595656,$GPRMC,080350.00,A,3110.47673,N,12124.31021,E,0.141,,131017,,,D*7D

1507881831.09595656,$GPRMC,080351.00,A,3110.47676,N,12124.30965,E,0.268,,131017,,,D*79

1507881832.09595656,$GPRMC,080352.00,A,3110.47681,N,12124.30935,E,0.052,,131017,,,D*7C

1507881833.09595656,$GPRMC,080353.00,A,3110.47681,N,12124.30899,E,0.247,,131017,,,D*7C

1507881834.09595656,$GPRMC,080354.00,A,3110.47674,N,12124.30850,E,0.196,,131017,,,D*7B

1507881835.09595656,$GPRMC,080355.00,A,3110.47671,N,12124.30793,E,0.220,,131017,,,D*71

1507881836.09595656,$GPRMC,080356.00,A,3110.47669,N,12124.30707,E,0.487,,131017,,,D*7D

1507881837.09595656,$GPRMC,080357.00,A,3110.47671,N,12124.30646,E,0.426,,131017,,,D*7A

1507881838.09595656,$GPRMC,080358.00,A,3110.47663,N,12124.30580,E,0.402,,131017,,,D*79

1507881839.09595656,$GPRMC,080359.00,A,3110.47656,N,12124.30509,E,0.541,,131017,,,D*79

1507881840.09595656,$GPRMC,080400.00,A,3110.47657,N,12124.30438,E,0.359,,131017,,,D*7F

1507881841.09595656,$GPRMC,080401.00,A,3110.47661,N,12124.30369,E,0.338,,131017,,,D*7F

1507881842.09595656,$GPRMC,080402.00,A,3110.47665,N,12124.30301,E,0.526,,131017,,,D*7F

1507881843.09595656,$GPRMC,080403.00,A,3110.47671,N,12124.30226,E,0.693,,131017,,,D*72

1507881844.09595656,$GPRMC,080404.00,A,3110.47675,N,12124.30150,E,0.749,,131017,,,D*75

1507881845.09595656,$GPRMC,080405.00,A,3110.47687,N,12124.30079,E,0.709,,131017,,,D*77

1507881846.09595656,$GPRMC,080406.00,A,3110.47696,N,12124.30014,E,0.680,,131017,,,D*7F

1507881847.09595656,$GPRMC,080407.00,A,3110.47701,N,12124.29955,E,0.583,,131017,,,D*75

1507881848.09595656,$GPRMC,080408.00,A,3110.47705,N,12124.29895,E,0.494,,131017,,,D*74

1507881849.09595656,$GPRMC,080409.00,A,3110.47705,N,12124.29836,E,0.436,,131017,,,D*74

1507881850.09595656,$GPRMC,080410.00,A,3110.47716,N,12124.29794,E,0.640,,131017,,,D*7A

1507881851.09595656,$GPRMC,080411.00,A,3110.47724,N,12124.29742,E,0.857,,131017,,,D*79

1507881852.09595656,$GPRMC,080412.00,A,3110.47727,N,12124.29691,E,0.751,,131017,,,D*7F

1507881853.09595656,$GPRMC,080413.00,A,3110.47743,N,12124.29666,E,0.408,,131017,,,D*7B

1507881854.09595656,$GPRMC,080414.00,A,3110.47747,N,12124.29623,E,0.295,,131017,,,D*7B

1507881855.09595656,$GPRMC,080415.00,A,3110.47790,N,12124.29564,E,0.608,,131017,,,D*70

1507881856.09595656,$GPRMC,080416.00,A,3110.47822,N,12124.29504,E,0.763,,131017,,,D*7F

1507881857.09595656,$GPRMC,080417.00,A,3110.47826,N,12124.29482,E,0.452,,131017,,,D*74

1507881858.09595656,$GPRMC,080418.00,A,3110.47890,N,12124.29464,E,0.644,,131017,,,D*7B

1507881859.09595656,$GPRMC,080419.00,A,3110.47957,N,12124.29458,E,0.761,,131017,,,D*79

1507881860.09595656,$GPRMC,080420.00,A,3110.48022,N,12124.29419,E,0.839,,131017,,,D*70

1507881861.09595656,$GPRMC,080421.00,A,3110.48036,N,12124.29417,E,0.602,,131017,,,D*7C

1507881862.09595656,$GPRMC,080422.00,A,3110.48064,N,12124.29384,E,0.444,,131017,,,D*75

1507881863.09595656,$GPRMC,080423.00,A,3110.48092,N,12124.29355,E,0.400,,131017,,,D*71

1507881864.09595656,$GPRMC,080424.00,A,3110.48123,N,12124.29323,E,0.558,,131017,,,D*70

1507881865.09595656,$GPRMC,080425.00,A,3110.48162,N,12124.29281,E,0.377,,131017,,,D*76

1507881866.09595656,$GPRMC,080426.00,A,3110.48165,N,12124.29284,E,0.164,,131017,,,D*77

1507881867.09595656,$GPRMC,080427.00,A,3110.48174,N,12124.29255,E,0.454,,131017,,,D*7C

1507881868.09595656,$GPRMC,080428.00,A,3110.48202,N,12124.29235,E,0.365,,131017,,,D*72

1507881869.09595656,$GPRMC,080429.00,A,3110.48242,N,12124.29206,E,0.427,,131017,,,D*76

1507881870.09595656,$GPRMC,080430.00,A,3110.48285,N,12124.29137,E,0.978,50.17,131017,,,D*5E

1507881871.09595656,$GPRMC,080431.00,A,3110.48356,N,12124.29089,E,0.921,72.62,131017,,,D*5A

1507881872.09595656,$GPRMC,080432.00,A,3110.48430,N,12124.29020,E,0.658,97.24,131017,,,D*55

1507881873.09595656,$GPRMC,080433.00,A,3110.48499,N,12124.28991,E,0.551,,131017,,,D*79

1507881874.09595656,$GPRMC,080434.00,A,3110.48580,N,12124.28961,E,0.539,108.44,131017,,,D*61

1507881875.09595656,$GPRMC,080435.00,A,3110.48683,N,12124.28961,E,0.706,134.53,131017,,,D*67

1507881876.09595656,$GPRMC,080436.00,A,3110.48791,N,12124.28970,E,0.546,146.09,131017,,,D*6A

1507881877.09595656,$GPRMC,080437.00,A,3110.48877,N,12124.28961,E,0.607,155.79,131017,,,D*6F

1507881878.09595656,$GPRMC,080438.00,A,3110.48996,N,12124.28964,E,0.499,159.05,131017,,,D*69

1507881879.09595656,$GPRMC,080439.00,A,3110.49066,N,12124.28949,E,0.464,163.18,131017,,,D*67

1507881880.09595656,$GPRMC,080440.00,A,3110.49128,N,12124.28941,E,0.461,166.92,131017,,,D*68

1507881881.09595656,$GPRMC,080441.00,A,3110.49176,N,12124.28914,E,0.734,174.19,131017,,,D*61

1507881882.09595656,$GPRMC,080442.00,A,3110.49224,N,12124.28894,E,0.629,177.18,131017,,,D*60

1507881883.09595656,$GPRMC,080443.00,A,3110.49253,N,12124.28871,E,0.439,,131017,,,D*7F

1507881884.09595656,$GPRMC,080444.00,A,3110.49289,N,12124.28821,E,0.288,,131017,,,D*76

1507881885.09595656,$GPRMC,080445.00,A,3110.49319,N,12124.28792,E,0.338,,131017,,,D*72

1507881886.09595656,$GPRMC,080446.00,A,3110.49352,N,12124.28762,E,0.485,,131017,,,D*70

1507881887.09595656,$GPRMC,080447.00,A,3110.49357,N,12124.28736,E,0.198,,131017,,,D*7C

1507881888.09595656,$GPRMC,080448.00,A,3110.49354,N,12124.28708,E,0.354,,131017,,,D*7F

1507881889.09595656,$GPRMC,080449.00,A,3110.49353,N,12124.28676,E,0.506,,131017,,,D*70

1507881890.09595656,$GPRMC,080450.00,A,3110.49351,N,12124.28652,E,0.482,,131017,,,D*71

1507881891.09595656,$GPRMC,080451.00,A,3110.49344,N,12124.28614,E,0.470,,131017,,,D*7B

1507881892.09595656,$GPRMC,080452.00,A,3110.49332,N,12124.28570,E,0.465,,131017,,,D*7C

1507881893.09595656,$GPRMC,080453.00,A,3110.49319,N,12124.28536,E,0.482,,131017,,,D*7F

1507881894.09595656,$GPRMC,080454.00,A,3110.49317,N,12124.28511,E,0.473,,131017,,,D*7D

1507881895.09595656,$GPRMC,080455.00,A,3110.49325,N,12124.28495,E,0.424,,131017,,,D*72

1507881896.09595656,$GPRMC,080456.00,A,3110.49349,N,12124.28493,E,0.414,,131017,,,D*7E

1507881897.09595656,$GPRMC,080457.00,A,3110.49371,N,12124.28490,E,0.393,,131017,,,D*7F

1507881898.09595656,$GPRMC,080458.00,A,3110.49399,N,12124.28514,E,0.418,,131017,,,D*7F

1507881899.09595656,$GPRMC,080459.00,A,3110.49419,N,12124.28537,E,0.384,,131017,,,D*72

1507881900.09595656,$GPRMC,080500.00,A,3110.49442,N,12124.28554,E,0.383,,131017,,,D*73

1507881901.09595656,$GPRMC,080501.00,A,3110.49433,N,12124.28592,E,0.427,,131017,,,D*77

1507881902.09595656,$GPRMC,080502.00,A,3110.49426,N,12124.28639,E,0.468,,131017,,,D*79

1507881903.09595656,$GPRMC,080503.00,A,3110.49438,N,12124.28696,E,0.512,,131017,,,D*7E

1507881904.09595656,$GPRMC,080504.00,A,3110.49408,N,12124.28701,E,0.307,,131017,,,D*77

1507881905.09595656,$GPRMC,080505.00,A,3110.49368,N,12124.28739,E,0.188,,131017,,,D*79

1507881906.09595656,$GPRMC,080506.00,A,3110.49374,N,12124.28791,E,0.183,,131017,,,D*7E

1507881907.09595656,$GPRMC,080507.00,A,3110.49386,N,12124.28841,E,0.169,,131017,,,D*74

1507881908.09595656,$GPRMC,080508.00,A,3110.49420,N,12124.28918,E,0.381,,131017,,,D*79

1507881909.09595656,$GPRMC,080509.00,A,3110.49424,N,12124.28974,E,0.352,,131017,,,D*78

1507881910.09595656,$GPRMC,080510.00,A,3110.49417,N,12124.28994,E,0.174,,131017,,,D*78

1507881911.09595656,$GPRMC,080511.00,A,3110.49406,N,12124.29019,E,0.434,,131017,,,D*75

1507881912.09595656,$GPRMC,080512.00,A,3110.49392,N,12124.29045,E,0.092,,131017,,,D*7D

1507881913.09595656,$GPRMC,080513.00,A,3110.49386,N,12124.29076,E,0.099,,131017,,,D*72

1507881914.09595656,$GPRMC,080514.00,A,3110.49391,N,12124.29117,E,0.129,,131017,,,D*7F

1507881915.09595656,$GPRMC,080515.00,A,3110.49428,N,12124.29159,E,0.110,,131017,,,D*7B

1507881916.09595656,$GPRMC,080516.00,A,3110.49487,N,12124.29205,E,0.120,,131017,,,D*74

1507881917.09595656,$GPRMC,080517.00,A,3110.49543,N,12124.29259,E,0.133,,131017,,,D*77

1507881918.09595656,$GPRMC,080518.00,A,3110.49596,N,12124.29316,E,0.028,,131017,,,D*71

1507881919.09595656,$GPRMC,080519.00,A,3110.49598,N,12124.29348,E,0.052,,131017,,,D*78

1507881920.09595656,$GPRMC,080520.00,A,3110.49603,N,12124.29377,E,0.031,,131017,,,D*7A

1507881921.09595656,$GPRMC,080521.00,A,3110.49654,N,12124.29419,E,0.022,,131017,,,D*74

1507881922.09595656,$GPRMC,080522.00,A,3110.49697,N,12124.29449,E,0.030,,131017,,,D*7E

1507881923.09595656,$GPRMC,080523.00,A,3110.49737,N,12124.29475,E,0.020,,131017,,,D*7A

1507881924.09595656,$GPRMC,080524.00,A,3110.49781,N,12124.29503,E,0.119,,131017,,,D*7B

1507881925.09595656,$GPRMC,080525.00,A,3110.49825,N,12124.29536,E,0.115,,131017,,,D*71

1507881926.09595656,$GPRMC,080526.00,A,3110.49874,N,12124.29585,E,0.023,,131017,,,D*7A

1507881927.09595656,$GPRMC,080527.00,A,3110.49924,N,12124.29627,E,0.057,,131017,,,D*77

1507881928.09595656,$GPRMC,080528.00,A,3110.49975,N,12124.29668,E,0.047,,131017,,,D*76

1507881929.09595656,$GPRMC,080529.00,A,3110.50023,N,12124.29703,E,0.074,,131017,,,D*79

1507881930.09595656,$GPRMC,080530.00,A,3110.50070,N,12124.29735,E,0.079,,131017,,,D*7F

1507881931.09595656,$GPRMC,080531.00,A,3110.50115,N,12124.29763,E,0.041,,131017,,,D*74

1507881932.09595656,$GPRMC,080532.00,A,3110.50160,N,12124.29790,E,0.076,,131017,,,D*7D

1507881933.09595656,$GPRMC,080533.00,A,3110.50195,N,12124.29811,E,0.078,,131017,,,D*7E

1507881934.09595656,$GPRMC,080534.00,A,3110.50227,N,12124.29829,E,0.075,,131017,,,D*75

1507881935.09595656,$GPRMC,080535.00,A,3110.50258,N,12124.29845,E,0.078,,131017,,,D*7B

1507881936.09595656,$GPRMC,080536.00,A,3110.50316,N,12124.29870,E,0.052,,131017,,,D*7D

1507881937.09595656,$GPRMC,080537.00,A,3110.50342,N,12124.29878,E,0.111,,131017,,,D*73

1507881938.09595656,$GPRMC,080538.00,A,3110.50369,N,12124.29885,E,0.111,,131017,,,D*77

1507881939.09595656,$GPRMC,080539.00,A,3110.50395,N,12124.29892,E,0.071,,131017,,,D*74

1507881940.09595656,$GPRMC,080540.00,A,3110.50414,N,12124.29897,E,0.089,,131017,,,D*76

1507881941.09595656,$GPRMC,080541.00,A,3110.50432,N,12124.29898,E,0.060,,131017,,,D*7B

1507881942.09595656,$GPRMC,080542.00,A,3110.50455,N,12124.29900,E,0.095,,131017,,,D*73

1507881943.09595656,$GPRMC,080543.00,A,3110.50478,N,12124.29903,E,0.073,,131017,,,D*76

1507881944.09595656,$GPRMC,080544.00,A,3110.50499,N,12124.29905,E,0.091,,131017,,,D*74

1507881945.09595656,$GPRMC,080545.00,A,3110.50522,N,12124.29904,E,0.098,,131017,,,D*7C

1507881946.09595656,$GPRMC,080546.00,A,3110.50547,N,12124.29903,E,0.057,,131017,,,D*78

1507881947.09595656,$GPRMC,080547.00,A,3110.50571,N,12124.29900,E,0.058,,131017,,,D*70

1507881948.09595656,$GPRMC,080548.00,A,3110.50595,N,12124.29898,E,0.103,,131017,,,D*7A

1507881949.09595656,$GPRMC,080549.00,A,3110.50621,N,12124.29894,E,0.375,160.50,131017,,,D*64

1507881950.09595656,$GPRMC,080550.00,A,3110.50656,N,12124.29888,E,0.162,,131017,,,D*79

1507881951.09595656,$GPRMC,080551.00,A,3110.50691,N,12124.29882,E,0.094,,131017,,,D*71

1507881952.09595656,$GPRMC,080552.00,A,3110.50722,N,12124.29878,E,0.039,,131017,,,D*79

1507881953.09595656,$GPRMC,080553.00,A,3110.50725,N,12124.29882,E,0.271,,131017,,,D*74

1507881954.09595656,$GPRMC,080554.00,A,3110.50763,N,12124.29881,E,0.234,,131017,,,D*73

1507881955.09595656,$GPRMC,080555.00,A,3110.50802,N,12124.29879,E,0.108,,131017,,,D*71

1507881956.09595656,$GPRMC,080556.00,A,3110.50839,N,12124.29879,E,0.060,,131017,,,D*75

1507881957.09595656,$GPRMC,080557.00,A,3110.50883,N,12124.29880,E,0.152,,131017,,,D*73

1507881958.09595656,$GPRMC,080558.00,A,3110.50847,N,12124.29863,E,0.220,,131017,,,D*7F

1507881959.09595656,$GPRMC,080559.00,A,3110.50860,N,12124.29838,E,0.086,,131017,,,D*7B

1507881960.09595656,$GPRMC,080600.00,A,3110.50830,N,12124.29820,E,0.067,,131017,,,D*77

1507881961.09595656,$GPRMC,080601.00,A,3110.50803,N,12124.29799,E,0.450,,131017,,,D*7B

1507881962.09595656,$GPRMC,080602.00,A,3110.50787,N,12124.29783,E,0.150,,131017,,,D*75

1507881963.09595656,$GPRMC,080603.00,A,3110.50772,N,12124.29767,E,0.098,,131017,,,D*71

1507881964.09595656,$GPRMC,080604.00,A,3110.50741,N,12124.29753,E,0.352,,131017,,,D*74

1507881965.09595656,$GPRMC,080605.00,A,3110.50759,N,12124.29755,E,0.078,,131017,,,D*71

1507881966.09595656,$GPRMC,080606.00,A,3110.50790,N,12124.29753,E,0.423,,131017,,,D*7B

1507881967.09595656,$GPRMC,080607.00,A,3110.50819,N,12124.29751,E,0.092,,131017,,,D*78

1507881968.09595656,$GPRMC,080608.00,A,3110.50847,N,12124.29751,E,0.043,,131017,,,D*70

1507881969.09595656,$GPRMC,080609.00,A,3110.50873,N,12124.29749,E,0.094,,131017,,,D*75

1507881970.09595656,$GPRMC,080610.00,A,3110.50903,N,12124.29748,E,0.199,,131017,,,D*76

1507881971.09595656,$GPRMC,080611.00,A,3110.50934,N,12124.29745,E,0.170,,131017,,,D*79

1507881972.09595656,$GPRMC,080612.00,A,3110.50967,N,12124.29755,E,0.362,,131017,,,D*7C

1507881973.09595656,$GPRMC,080613.00,A,3110.50907,N,12124.29748,E,0.111,,131017,,,D*71

1507881974.09595656,$GPRMC,080614.00,A,3110.50858,N,12124.29745,E,0.115,,131017,,,D*74

1507881975.09595656,$GPRMC,080615.00,A,3110.50811,N,12124.29748,E,0.388,,131017,,,D*73

1507881976.09595656,$GPRMC,080616.00,A,3110.50831,N,12124.29749,E,0.503,150.36,131017,,,D*69

1507881977.09595656,$GPRMC,080617.00,A,3110.50840,N,12124.29783,E,0.183,,131017,,,D*7B

1507881978.09595656,$GPRMC,080618.00,A,3110.50845,N,12124.29814,E,0.075,,131017,,,D*78

1507881979.09595656,$GPRMC,080619.00,A,3110.50831,N,12124.29830,E,0.068,,131017,,,D*70

1507881980.09595656,$GPRMC,080620.00,A,3110.50792,N,12124.29821,E,0.213,,131017,,,D*72

1507881981.09595656,$GPRMC,080621.00,A,3110.50769,N,12124.29835,E,0.471,,131017,,,D*70

1507881982.09595656,$GPRMC,080622.00,A,3110.50725,N,12124.29833,E,0.158,,131017,,,D*73

1507881983.09595656,$GPRMC,080623.00,A,3110.50688,N,12124.29828,E,0.025,,131017,,,D*75

1507881984.09595656,$GPRMC,080624.00,A,3110.50656,N,12124.29825,E,0.027,,131017,,,D*7E

1507881985.09595656,$GPRMC,080625.00,A,3110.50623,N,12124.29826,E,0.141,,131017,,,D*7F

1507881986.09595656,$GPRMC,080626.00,A,3110.50598,N,12124.29835,E,0.481,157.91,131017,,,D*61

1507881987.09595656,$GPRMC,080627.00,A,3110.50589,N,12124.29856,E,0.241,,131017,,,D*7A

1507881988.09595656,$GPRMC,080628.00,A,3110.50566,N,12124.29874,E,0.080,,131017,,,D*7B

1507881989.09595656,$GPRMC,080629.00,A,3110.50541,N,12124.29880,E,0.048,,131017,,,D*70

1507881990.09595656,$GPRMC,080630.00,A,3110.50525,N,12124.29889,E,0.041,,131017,,,D*7A

1507881991.09595656,$GPRMC,080631.00,A,3110.50511,N,12124.29899,E,0.084,,131017,,,D*74

1507881992.09595656,$GPRMC,080632.00,A,3110.50494,N,12124.29909,E,0.066,,131017,,,D*7F

1507881993.09595656,$GPRMC,080633.00,A,3110.50474,N,12124.29915,E,0.135,,131017,,,D*7A

1507881994.09595656,$GPRMC,080634.00,A,3110.50454,N,12124.29924,E,0.068,,131017,,,D*74

1507881995.09595656,$GPRMC,080635.00,A,3110.50440,N,12124.29933,E,0.114,,131017,,,D*7C

1507881996.09595656,$GPRMC,080636.00,A,3110.50418,N,12124.29935,E,0.250,,131017,,,D*77

1507881997.09595656,$GPRMC,080637.00,A,3110.50404,N,12124.29938,E,0.216,,131017,,,D*74

1507881998.09595656,$GPRMC,080638.00,A,3110.50374,N,12124.29943,E,0.162,,131017,,,D*77

1507881999.09595656,$GPRMC,080639.00,A,3110.50340,N,12124.29942,E,0.090,,131017,,,D*7C

1507882000.09595656,$GPRMC,080640.00,A,3110.50310,N,12124.29942,E,0.085,,131017,,,D*73

1507882001.09595656,$GPRMC,080641.00,A,3110.50281,N,12124.29936,E,0.002,,131017,,,D*77

1507882002.09595656,$GPRMC,080642.00,A,3110.50253,N,12124.29930,E,0.004,,131017,,,D*7B

1507882003.09595656,$GPRMC,080643.00,A,3110.50223,N,12124.29922,E,0.030,,131017,,,D*79

1507882004.09595656,$GPRMC,080644.00,A,3110.50199,N,12124.29914,E,0.101,,131017,,,D*7A

1507882005.09595656,$GPRMC,080645.00,A,3110.50169,N,12124.29899,E,0.040,,131017,,,D*74

1507882006.09595656,$GPRMC,080646.00,A,3110.50142,N,12124.29889,E,0.023,,131017,,,D*7A

1507882007.09595656,$GPRMC,080647.00,A,3110.50118,N,12124.29883,E,0.112,,131017,,,D*7D

1507882008.09595656,$GPRMC,080648.00,A,3110.50098,N,12124.29872,E,0.198,,131017,,,D*77

1507882009.09595656,$GPRMC,080649.00,A,3110.50078,N,12124.29863,E,0.053,,131017,,,D*7E

1507882010.09595656,$GPRMC,080650.00,A,3110.50056,N,12124.29854,E,0.049,,131017,,,D*75

1507882011.09595656,$GPRMC,080651.00,A,3110.50039,N,12124.29853,E,0.083,,131017,,,D*7C

1507882012.09595656,$GPRMC,080652.00,A,3110.50023,N,12124.29850,E,0.186,,131017,,,D*73

1507882013.09595656,$GPRMC,080653.00,A,3110.49997,N,12124.29857,E,0.040,,131017,,,D*70

1507882014.09595656,$GPRMC,080654.00,A,3110.49979,N,12124.29864,E,0.049,,131017,,,D*7E

1507882015.09595656,$GPRMC,080655.00,A,3110.49964,N,12124.29871,E,0.118,,131017,,,D*72

1507882016.09595656,$GPRMC,080656.00,A,3110.49947,N,12124.29867,E,0.146,,131017,,,D*7C

1507882017.09595656,$GPRMC,080657.00,A,3110.49933,N,12124.29858,E,0.052,,131017,,,D*76

1507882018.09595656,$GPRMC,080658.00,A,3110.49914,N,12124.29866,E,0.109,,131017,,,D*7E

1507882019.09595656,$GPRMC,080659.00,A,3110.49897,N,12124.29868,E,0.077,,131017,,,D*73

1507882020.09595656,$GPRMC,080700.00,A,3110.49879,N,12124.29866,E,0.200,,131017,,,D*72

1507882021.09595656,$GPRMC,080701.00,A,3110.49861,N,12124.29860,E,0.060,,131017,,,D*78

1507882022.09595656,$GPRMC,080702.00,A,3110.49841,N,12124.29837,E,0.056,,131017,,,D*7E

1507882023.09595656,$GPRMC,080703.00,A,3110.49815,N,12124.29833,E,0.025,,131017,,,D*7E

1507882024.09595656,$GPRMC,080704.00,A,3110.49804,N,12124.29837,E,0.200,,131017,,,D*78

1507882025.09595656,$GPRMC,080705.00,A,3110.49798,N,12124.29837,E,0.245,,131017,,,D*72

1507882026.09595656,$GPRMC,080706.00,A,3110.49784,N,12124.29826,E,0.080,,131017,,,D*77

1507882027.09595656,$GPRMC,080707.00,A,3110.49765,N,12124.29809,E,0.092,,131017,,,D*77

1507882028.09595656,$GPRMC,080708.00,A,3110.49748,N,12124.29818,E,0.270,,131017,,,D*79

1507882029.09595656,$GPRMC,080709.00,A,3110.49738,N,12124.29826,E,0.127,,131017,,,D*73

1507882030.09595656,$GPRMC,080710.00,A,3110.49725,N,12124.29822,E,0.145,,131017,,,D*77

1507882031.09595656,$GPRMC,080711.00,A,3110.49707,N,12124.29798,E,0.106,,131017,,,D*7F

1507882032.09595656,$GPRMC,080712.00,A,3110.49694,N,12124.29784,E,0.056,,131017,,,D*7E

1507882033.09595656,$GPRMC,080713.00,A,3110.49669,N,12124.29783,E,0.202,,131017,,,D*79

1507882034.09595656,$GPRMC,080714.00,A,3110.49663,N,12124.29779,E,0.150,,131017,,,D*75

1507882035.09595656,$GPRMC,080715.00,A,3110.49646,N,12124.29770,E,0.163,,131017,,,D*7A

